[{"id":"14113","name":"Bahia Blanca","lat":"-38.783333333333","long":"-62.266666666667"},{"id":"26670","name":"Buenos Aires","lat":"-34.566666666667","long":"-58.383333333333"},{"id":"22558","name":"Caleta Cordova","lat":"-45.716666666667","long":"-67.35"},{"id":"22511","name":"Caleta Olivares","lat":"-45.766666666667","long":"-67.366666666667"},{"id":"22603","name":"Caleta Olivia","lat":"-46.433333333333","long":"-67.5"},{"id":"14214","name":"Campana","lat":"-34.15","long":"-58.966666666667"},{"id":"14247","name":"Comodoro Rivadavia","lat":"-45.85","long":"-67.433333333333"},{"id":"14425","name":"Diamante","lat":"-32.133333333333","long":"-60.583333333333"},{"id":"210735","name":"General Lagos","lat":"-33.083333333333","long":"-60.566666666667"},{"id":"27073","name":"Ibicuy","lat":"-33.65","long":"-59.25"},{"id":"23326","name":"Ingeniero Buitrango","lat":"-33.5","long":"-60.033333333333"},{"id":"12089","name":"Ingeniero White","lat":"-38.8","long":"-62.266666666667"},{"id":"14483","name":"La Plata","lat":"-34.833333333333","long":"-57.883333333333"},{"id":"22646","name":"Puerto Acevedo","lat":"-33.266666666667","long":"-60.333333333333"},{"id":"16902","name":"Puerto Belgrano","lat":"-38.9","long":"-62.1"},{"id":"12254","name":"Puerto Galvan","lat":"-38.8","long":"-62.3"},{"id":"15012","name":"Puerto Ingeniero Rocca","lat":"-34.85","long":"-57.883333333333"},{"id":"14502","name":"Puerto Madryn","lat":"-42.766666666667","long":"-65.033333333333"},{"id":"16539","name":"Puerto Martins","lat":"-33.433333333333","long":"-60.066666666667"},{"id":"244851","name":"Puerto Parana","lat":"-31.716666666667","long":"-60.533333333333"},{"id":"16943","name":"Puerto Rosales","lat":"-38.916666666667","long":"-62.066666666667"},{"id":"210734","name":"Punta Alvear","lat":"-32.95","long":"-60.6"},{"id":"16800","name":"Punta Ancla","lat":"-38.95","long":"-62"},{"id":"16764","name":"Punta Ciguena","lat":"-38.933333333333","long":"-62.033333333333"},{"id":"30032","name":"Punta Loyola","lat":"-51.6","long":"-69.016666666667"},{"id":"14740","name":"Ramallo","lat":"-33.5","long":"-60"},{"id":"14851","name":"Rio Gallegos","lat":"-51.616666666667","long":"-68.966666666667"},{"id":"14933","name":"Rosario","lat":"-32.95","long":"-60.6"},{"id":"15030","name":"San Lorenzo - San Martin","lat":"-32.75","long":"-60.733333333333"},{"id":"12330","name":"San Martin","lat":"-32.783333333333","long":"-60.716666666667"},{"id":"15087","name":"San Nicolas","lat":"-33.333333333333","long":"-60.216666666667"},{"id":"27025","name":"San Pedro","lat":"-33.7","long":"-59.65"},{"id":"15313","name":"San Sebastian Bay","lat":"-53.316666666667","long":"-68.35"},{"id":"15413","name":"Santa Fe","lat":"-31.65","long":"-60.7"},{"id":"15432","name":"Villa Constitucion","lat":"-33.3","long":"-60.333333333333"},{"id":"15520","name":"Zarate","lat":"-34.15","long":"-59.083333333333"}]