[{"id":"23960","name":"Argentia","lat":"47.3","long":"-53.983333333333"},{"id":"23011","name":"Baie Verte","lat":"49.916666666667","long":"-56.2"},{"id":"21319","name":"Baie-Comeau","lat":"49.233333333333","long":"-68.133333333333"},{"id":"219985","name":"Bathurst","lat":"47.616666666667","long":"-65.65"},{"id":"23049","name":"Bayside","lat":"45.15","long":"-67.133333333333"},{"id":"21401","name":"Belledune","lat":"47.916666666667","long":"-65.833333333333"},{"id":"10919","name":"Berrypoint","lat":"49.3","long":"-123"},{"id":"21435","name":"Botwood","lat":"49.1","long":"-55.366666666667"},{"id":"20620","name":"Brooklyn","lat":"44.05","long":"-64.7"},{"id":"216375","name":"Burlington Bay","lat":"43.283333333333","long":"-79.833333333333"},{"id":"11279","name":"Campbell River","lat":"50.016666666667","long":"-125.25"},{"id":"24152","name":"Canaport","lat":"45.266666666667","long":"-66.05"},{"id":"21657","name":"Chandler","lat":"48.333333333333","long":"-64.65"},{"id":"219990","name":"Charlottetown","lat":"46.233333333333","long":"-63.116666666667"},{"id":"220023","name":"Chatham","lat":"47.033333333333","long":"-65.466666666667"},{"id":"24920","name":"Chicoutimi","lat":"48.416666666667","long":"-71.033333333333"},{"id":"21809","name":"Churchill","lat":"58.783333333333","long":"-94.2"},{"id":"28092","name":"Clarenville","lat":"48.166666666667","long":"-53.95"},{"id":"23275","name":"Clarkson","lat":"43.5","long":"-79.633333333333"},{"id":"21825","name":"Come By Chance","lat":"47.8","long":"-54.016666666667"},{"id":"23414","name":"Comeau Bay","lat":"49.233333333333","long":"-68.133333333333"},{"id":"21886","name":"Corner Brook","lat":"48.95","long":"-57.95"},{"id":"22001","name":"Dalhousie","lat":"48.066666666667","long":"-66.366666666667"},{"id":"29402","name":"Duke Point","lat":"49.166666666667","long":"-123.95"},{"id":"23483","name":"Duncan Bay","lat":"50.083333333333","long":"-125.28333333333"},{"id":"25361","name":"Esquimalt","lat":"48.416666666667","long":"-123.43333333333"},{"id":"11374","name":"Fairview Cove","lat":"44.683333333333","long":"-63.65"},{"id":"15054","name":"Frobisher","lat":"63.733333333333","long":"-68.533333333333"},{"id":"28321","name":"Gold River","lat":"49.683333333333","long":"-126.11666666667"},{"id":"220001","name":"Goose Bay","lat":"53.366666666667","long":"-60.366666666667"},{"id":"22226","name":"Halifax","lat":"44.65","long":"-63.566666666667"},{"id":"22304","name":"Hamilton","lat":"43.283333333333","long":"-79.833333333333"},{"id":"22469","name":"Havre St Pierre","lat":"50.233333333333","long":"-63.6"},{"id":"22500","name":"Holyrood","lat":"47.383333333333","long":"-53.116666666667"},{"id":"14253","name":"Humbermouth","lat":"48.95","long":"-57.95"},{"id":"219991","name":"Iqaluit","lat":"63.733333333333","long":"-68.533333333333"},{"id":"220021","name":"Kingston","lat":"44.2","long":"-76.5"},{"id":"213637","name":"Kingsville","lat":"42.033333333333","long":"-82.733333333333"},{"id":"22582","name":"Kitimat","lat":"53.983333333333","long":"-128.71666666667"},{"id":"221417","name":"Lewisporte","lat":"49.25","long":"-55.05"},{"id":"22694","name":"Liverpool","lat":"44.05","long":"-64.7"},{"id":"24826","name":"Long Harbour","lat":"47.45","long":"-53.8"},{"id":"22760","name":"Matane","lat":"48.85","long":"-67.566666666667"},{"id":"11858","name":"Mckellar Island","lat":"48.45","long":"-89.233333333333"},{"id":"21428","name":"Middle Point","lat":"50.116666666667","long":"-125.3"},{"id":"11922","name":"Mission River","lat":"48.45","long":"-89.233333333333"},{"id":"22882","name":"Mont Louis","lat":"49.233333333333","long":"-65.733333333333"},{"id":"22940","name":"Montreal","lat":"45.5","long":"-73.566666666667"},{"id":"29774","name":"Mulgrave","lat":"45.583333333333","long":"-61.383333333333"},{"id":"23233","name":"Nanaimo","lat":"49.166666666667","long":"-123.93333333333"},{"id":"23296","name":"New Glasgow & Trenton","lat":"45.583333333333","long":"-62.633333333333"},{"id":"24999","name":"New Richmond","lat":"48.133333333333","long":"-65.833333333333"},{"id":"29821","name":"Newcastle","lat":"47","long":"-65.55"},{"id":"219992","name":"North Sydney","lat":"46.266666666667","long":"-60.216666666667"},{"id":"23415","name":"Ocean Falls","lat":"52.35","long":"-127.68333333333"},{"id":"21456","name":"Ogden Point","lat":"48.416666666667","long":"-123.38333333333"},{"id":"23589","name":"Pictou","lat":"45.683333333333","long":"-62.716666666667"},{"id":"24220","name":"Point Tupper","lat":"45.616666666667","long":"-61.366666666667"},{"id":"22757","name":"Pointe Aux Basques","lat":"50.183333333333","long":"-66.366666666667"},{"id":"22493","name":"Pointe Noire","lat":"50.166666666667","long":"-66.5"},{"id":"27746","name":"Port Alberni","lat":"49.233333333333","long":"-124.83333333333"},{"id":"23709","name":"Port Alfred","lat":"48.333333333333","long":"-70.866666666667"},{"id":"23746","name":"Port Alice","lat":"50.366666666667","long":"-127.46666666667"},{"id":"220018","name":"Port aux Basques","lat":"47.566666666667","long":"-59.116666666667"},{"id":"23758","name":"Port Cartier","lat":"50.033333333333","long":"-66.783333333333"},{"id":"24230","name":"Port Harmon","lat":"48.516666666667","long":"-58.516666666667"},{"id":"23861","name":"Port Hawkesbury","lat":"45.616666666667","long":"-61.366666666667"},{"id":"24128","name":"Port Medway","lat":"44.116666666667","long":"-64.6"},{"id":"21779","name":"Port Saguenay","lat":"48.4","long":"-70.816666666667"},{"id":"213635","name":"Port Stanley","lat":"42.65","long":"-81.216666666667"},{"id":"23925","name":"Powell River","lat":"49.866666666667","long":"-124.55"},{"id":"221514","name":"Prince Rupert","lat":"54.316666666667","long":"-130.33333333333"},{"id":"24085","name":"Quebec","lat":"46.816666666667","long":"-71.2"},{"id":"22775","name":"Ridley Island","lat":"54.233333333333","long":"-130.3"},{"id":"24150","name":"Rimouski","lat":"48.466666666667","long":"-68.516666666667"},{"id":"27775","name":"Roberts Bank","lat":"49.033333333333","long":"-123.15"},{"id":"24396","name":"Saint John","lat":"45.266666666667","long":"-66.05"},{"id":"213632","name":"Sarnia","lat":"42.966666666667","long":"-82.416666666667"},{"id":"26784","name":"Sept-Iles","lat":"50.183333333333","long":"-66.383333333333"},{"id":"24229","name":"Seven Islands","lat":"50.183333333333","long":"-66.383333333333"},{"id":"219999","name":"Shelburne","lat":"43.75","long":"-65.316666666667"},{"id":"24761","name":"Sorel","lat":"46.033333333333","long":"-73.116666666667"},{"id":"24240","name":"St Andrews","lat":"45.083333333333","long":"-67.066666666667"},{"id":"24433","name":"St John's","lat":"47.566666666667","long":"-52.7"},{"id":"22622","name":"St Romuald","lat":"46.783333333333","long":"-71.216666666667"},{"id":"24884","name":"Stephenville","lat":"48.516666666667","long":"-58.516666666667"},{"id":"24918","name":"Stewart","lat":"55.916666666667","long":"-130.01666666667"},{"id":"24995","name":"Sydney","lat":"46.15","long":"-60.2"},{"id":"220025","name":"Tahsis","lat":"49.916666666667","long":"-126.66666666667"},{"id":"220022","name":"Thunder Bay","lat":"48.45","long":"-89.233333333333"},{"id":"25154","name":"Toronto","lat":"43.633333333333","long":"-79.383333333333"},{"id":"27850","name":"Trois-Rivieres","lat":"46.366666666667","long":"-72.566666666667"},{"id":"25350","name":"Vancouver","lat":"49.283333333333","long":"-123.11666666667"},{"id":"22009","name":"Victoria","lat":"48.416666666667","long":"-123.38333333333"},{"id":"221410","name":"Whiffen Head","lat":"47.8","long":"-54.016666666667"},{"id":"25572","name":"Windsor","lat":"42.316666666667","long":"-83.066666666667"},{"id":"25681","name":"Yarmouth","lat":"43.833333333333","long":"-66.116666666667"}]