[{"id":"15763","name":"Akrotiri","lat":"34.566666666667","long":"33.033333333333"},{"id":"30153","name":"Dhekelia","lat":"34.983333333333","long":"33.733333333333"},{"id":"10004","name":"Famagusta","lat":"35.116666666667","long":"33.95"},{"id":"26931","name":"Gemikonagi","lat":"35.133333333333","long":"32.816666666667"},{"id":"10027","name":"Karavostassi","lat":"35.133333333333","long":"32.816666666667"},{"id":"10136","name":"Larnaca","lat":"34.916666666667","long":"33.65"},{"id":"21024","name":"Limassol","lat":"34.65","long":"33.016666666667"},{"id":"21054","name":"Moni","lat":"34.7","long":"33.2"},{"id":"21063","name":"Morphou Bay","lat":"35.133333333333","long":"32.833333333333"},{"id":"217909","name":"Paphos","lat":"34.75","long":"32.4"},{"id":"10207","name":"Vassiliko","lat":"34.716666666667","long":"33.316666666667"},{"id":"11180","name":"Xeros","lat":"35.133333333333","long":"32.85"}]