[{"id":"10267","name":"Aabenraa","lat":"55.033333333333","long":"9.4166666666667"},{"id":"10328","name":"Aalborg","lat":"57.05","long":"9.9166666666667"},{"id":"10358","name":"Aarhus","lat":"56.15","long":"10.216666666667"},{"id":"26933","name":"Asnaesvaerkets Havn","lat":"55.666666666667","long":"11.083333333333"},{"id":"24797","name":"Avernakke","lat":"55.3","long":"10.8"},{"id":"10563","name":"Copenhagen","lat":"55.7","long":"12.616666666667"},{"id":"10607","name":"Ebeltoft","lat":"56.183333333333","long":"10.683333333333"},{"id":"11176","name":"Elsinore","lat":"56.033333333333","long":"12.616666666667"},{"id":"10635","name":"Ensted","lat":"55.016666666667","long":"9.4333333333333"},{"id":"10685","name":"Esbjerg","lat":"55.466666666667","long":"8.4333333333333"},{"id":"25832","name":"Fredericia","lat":"55.566666666667","long":"9.75"},{"id":"10900","name":"Frederikshavn","lat":"57.45","long":"10.533333333333"},{"id":"10905","name":"Frederikssund","lat":"55.833333333333","long":"12.066666666667"},{"id":"11099","name":"Gulfhavn","lat":"55.2","long":"11.266666666667"},{"id":"29418","name":"Helsingor","lat":"56.033333333333","long":"12.616666666667"},{"id":"11322","name":"Horsens","lat":"55.85","long":"9.8666666666667"},{"id":"11534","name":"Kalundborg","lat":"55.683333333333","long":"11.116666666667"},{"id":"29555","name":"Karrebaeksminde","lat":"55.183333333333","long":"11.65"},{"id":"11669","name":"Koge","lat":"55.45","long":"12.2"},{"id":"11693","name":"Kolding","lat":"55.5","long":"9.5"},{"id":"11709","name":"Korsoer","lat":"55.333333333333","long":"11.133333333333"},{"id":"11740","name":"Kyndby","lat":"55.816666666667","long":"11.883333333333"},{"id":"24867","name":"Lindholm","lat":"55.3","long":"10.816666666667"},{"id":"19196","name":"Lindoe Terminal","lat":"55.466666666667","long":"10.533333333333"},{"id":"26990","name":"Lyngs Odde","lat":"55.516666666667","long":"9.7333333333333"},{"id":"27052","name":"Masnedovaerkets Havn","lat":"54.966666666667","long":"11.883333333333"},{"id":"27127","name":"Naestved","lat":"55.233333333333","long":"11.75"},{"id":"11965","name":"Nyborg","lat":"55.316666666667","long":"10.8"},{"id":"12069","name":"Odense","lat":"55.416666666667","long":"10.383333333333"},{"id":"12081","name":"Orehoved","lat":"54.95","long":"11.85"},{"id":"12481","name":"Ronne","lat":"55.083333333333","long":"14.683333333333"},{"id":"12505","name":"Rudkobing","lat":"54.933333333333","long":"10.7"},{"id":"12638","name":"Skaelskor","lat":"55.25","long":"11.3"},{"id":"27260","name":"Skaerbaek","lat":"55.516666666667","long":"9.6166666666667"},{"id":"12641","name":"Skagen","lat":"57.716666666667","long":"10.583333333333"},{"id":"23534","name":"Stigsnaesvaerkets Havn","lat":"55.2","long":"11.333333333333"},{"id":"12841","name":"Svendborg","lat":"55.05","long":"10.616666666667"},{"id":"12929","name":"Tuborg","lat":"55.733333333333","long":"12.583333333333"},{"id":"13213","name":"Vordingborg","lat":"54.983333333333","long":"11.883333333333"}]