[{"id":"14526","name":"Abu Zenima","lat":"29.033333333333","long":"33.1"},{"id":"14689","name":"Adabiya","lat":"29.866666666667","long":"32.466666666667"},{"id":"252278","name":"Alexandria","lat":"31.183333333333","long":"29.866666666667"},{"id":"214648","name":"Ataqa","lat":"29.883333333333","long":"32.466666666667"},{"id":"21064","name":"El Alamein","lat":"30.983333333333","long":"28.866666666667"},{"id":"17350","name":"El Dekheila","lat":"31.133333333333","long":"29.816666666667"},{"id":"210876","name":"El Meks","lat":"31.15","long":"29.833333333333"},{"id":"17563","name":"Hurghada","lat":"27.233333333333","long":"33.833333333333"},{"id":"20164","name":"Kosseir","lat":"26.1","long":"34.283333333333"},{"id":"14754","name":"Mersa el Hamra","lat":"30.966666666667","long":"28.866666666667"},{"id":"20092","name":"Port Ibrahim","lat":"29.966666666667","long":"32.55"},{"id":"14867","name":"Port Said","lat":"31.266666666667","long":"32.316666666667"},{"id":"20134","name":"Port Tewfik","lat":"29.966666666667","long":"32.55"},{"id":"20188","name":"Quseir","lat":"26.1","long":"34.283333333333"},{"id":"17783","name":"Ras Budran","lat":"28.933333333333","long":"33.133333333333"},{"id":"14880","name":"Ras Gharib","lat":"28.35","long":"33.1"},{"id":"18015","name":"Ras Shukheir","lat":"28.133333333333","long":"33.283333333333"},{"id":"17855","name":"Ras Sudr","lat":"29.583333333333","long":"32.683333333333"},{"id":"17891","name":"Safaga","lat":"26.75","long":"33.933333333333"},{"id":"14928","name":"Suez","lat":"29.966666666667","long":"32.55"},{"id":"14994","name":"Wadi Feiran","lat":"28.733333333333","long":"33.233333333333"}]