[{"id":"13689","name":"Ambon","lat":"-3.6833333333333","long":"128.16666666667"},{"id":"24156","name":"Ampenam","lat":"-8.5666666666667","long":"116.06666666667"},{"id":"27403","name":"Balikpapan","lat":"-1.25","long":"116.8"},{"id":"28158","name":"Batu Ampar","lat":"1.1666666666667","long":"104"},{"id":"27524","name":"Belawan","lat":"3.7833333333333","long":"98.7"},{"id":"27540","name":"Bengkulu","lat":"-3.7833333333333","long":"102.25"},{"id":"27587","name":"Benoa","lat":"-8.75","long":"115.2"},{"id":"29048","name":"Biak","lat":"-1.1833333333333","long":"136.08333333333"},{"id":"28250","name":"Buatan","lat":"0.75","long":"101.83333333333"},{"id":"28298","name":"Bunyu","lat":"3.4666666666667","long":"117.83333333333"},{"id":"27690","name":"Cigading","lat":"-6.0166666666667","long":"105.95"},{"id":"241376","name":"Cilacap","lat":"-7.7333333333333","long":"108.98333333333"},{"id":"27779","name":"Cirebon","lat":"-6.6833333333333","long":"108.55"},{"id":"20236","name":"Citra Ujung Baru","lat":"3.7833333333333","long":"98.7"},{"id":"27822","name":"Dumai","lat":"1.6833333333333","long":"101.45"},{"id":"20299","name":"Gabion","lat":"3.8","long":"98.716666666667"},{"id":"28352","name":"Gresik","lat":"-7.0666666666667","long":"112.63333333333"},{"id":"29390","name":"Jakarta","lat":"-6.1","long":"106.86666666667"},{"id":"27884","name":"Jambi","lat":"-1.5666666666667","long":"103.61666666667"},{"id":"28290","name":"Kabil","lat":"1.1666666666667","long":"104"},{"id":"14684","name":"Kalianget","lat":"-7.0666666666667","long":"113.95"},{"id":"28642","name":"Kota Baru","lat":"-3.2166666666667","long":"116.2"},{"id":"14915","name":"Kupang","lat":"-10.166666666667","long":"123.56666666667"},{"id":"21815","name":"Labuantring","lat":"-8.5666666666667","long":"116.06666666667"},{"id":"15048","name":"Lembar","lat":"-8.5666666666667","long":"116.06666666667"},{"id":"19956","name":"Macassar","lat":"-5.1333333333333","long":"119.4"},{"id":"15663","name":"Makassar","lat":"-5.1333333333333","long":"119.4"},{"id":"14918","name":"Manado","lat":"1.5","long":"124.83333333333"},{"id":"20255","name":"Medan","lat":"3.7833333333333","long":"98.7"},{"id":"28341","name":"Muntok","lat":"-2.0666666666667","long":"105.16666666667"},{"id":"212945","name":"North Pulau Laut Coal Terminal","lat":"-3.2","long":"116.28333333333"},{"id":"28093","name":"Palembang","lat":"-2.9833333333333","long":"104.75"},{"id":"28251","name":"Pangkalan Susu","lat":"4.2166666666667","long":"98.4"},{"id":"28213","name":"Panjang","lat":"-5.4666666666667","long":"105.16666666667"},{"id":"15693","name":"Pare Pare","lat":"-4","long":"119.61666666667"},{"id":"15775","name":"Pekanbaru","lat":"0.55","long":"101.45"},{"id":"28294","name":"Plaju & Sungai Gerong","lat":"-2.9833333333333","long":"104.83333333333"},{"id":"15945","name":"Pontianak","lat":"-0.016666666666667","long":"109.35"},{"id":"14353","name":"Pulau Laut","lat":"-3.2833333333333","long":"116.15"},{"id":"15113","name":"Pulau Sambu","lat":"1.1666666666667","long":"103.9"},{"id":"28355","name":"Sabang","lat":"5.8333333333333","long":"95.333333333333"},{"id":"28497","name":"Samarinda","lat":"-0.53333333333333","long":"117.15"},{"id":"28533","name":"Sekupang","lat":"1.1166666666667","long":"103.91666666667"},{"id":"29319","name":"Semarang","lat":"-6.8833333333333","long":"110.4"},{"id":"16306","name":"Sibolga","lat":"1.7333333333333","long":"98.766666666667"},{"id":"16417","name":"Sorong","lat":"-0.88333333333333","long":"131.23333333333"},{"id":"214003","name":"Sunda Kelapa","lat":"-6.1","long":"106.8"},{"id":"20166","name":"Sungai Gerong","lat":"-2.9833333333333","long":"104.83333333333"},{"id":"28541","name":"Sungai Pakning","lat":"1.3333333333333","long":"102.15"},{"id":"29358","name":"Surabaya","lat":"-7.2166666666667","long":"112.73333333333"},{"id":"28456","name":"Tanjung Emas","lat":"-6.8833333333333","long":"110.4"},{"id":"13701","name":"Tanjung Intan","lat":"-7.7333333333333","long":"108.98333333333"},{"id":"214295","name":"Tanjung Pandan","lat":"-2.75","long":"107.63333333333"},{"id":"28596","name":"Tanjung Perak","lat":"-7.2166666666667","long":"112.73333333333"},{"id":"27933","name":"Tanjung Priok","lat":"-6.1","long":"106.86666666667"},{"id":"28646","name":"Tanjung Uban","lat":"1.0833333333333","long":"104.2"},{"id":"24177","name":"Tarahan Terminal","lat":"-5.5","long":"105.16666666667"},{"id":"15544","name":"Tarakan Island","lat":"3.25","long":"117.65"},{"id":"21277","name":"Telok Ayer","lat":"-0.73333333333333","long":"109.56666666667"},{"id":"28702","name":"Teluk Bayur","lat":"-0.98333333333333","long":"100.36666666667"},{"id":"29535","name":"Ujung Pandang","lat":"-5.1333333333333","long":"119.4"}]