[{"id":"10473","name":"Aboshi","lat":"34.75","long":"134.56666666667"},{"id":"24597","name":"Aburakawa","lat":"40.866666666667","long":"140.76666666667"},{"id":"29853","name":"Aioi","lat":"34.783333333333","long":"134.46666666667"},{"id":"29886","name":"Amagasaki","lat":"34.683333333333","long":"135.38333333333"},{"id":"13740","name":"Aomori","lat":"40.866666666667","long":"140.76666666667"},{"id":"13775","name":"Chiba","lat":"35.583333333333","long":"140.1"},{"id":"214893","name":"Chita","lat":"35.05","long":"136.85"},{"id":"26944","name":"Etajima","lat":"34.183333333333","long":"132.48333333333"},{"id":"14086","name":"Fukuyama","lat":"34.366666666667","long":"133.43333333333"},{"id":"29928","name":"Funakawa","lat":"39.866666666667","long":"139.83333333333"},{"id":"14238","name":"Hakata","lat":"33.6","long":"130.4"},{"id":"14243","name":"Hakodate","lat":"41.783333333333","long":"140.7"},{"id":"25369","name":"Hamada","lat":"34.866666666667","long":"132.05"},{"id":"29959","name":"Hannan","lat":"34.45","long":"135.36666666667"},{"id":"248869","name":"Hashihama","lat":"34.116666666667","long":"132.96666666667"},{"id":"15543","name":"Heianza","lat":"26.366666666667","long":"127.96666666667"},{"id":"10549","name":"Hibikinada","lat":"33.933333333333","long":"130.83333333333"},{"id":"30024","name":"Higashi-Harima","lat":"34.716666666667","long":"134.75"},{"id":"215891","name":"Higashi-Ogishima","lat":"35.5","long":"139.76666666667"},{"id":"29288","name":"Hikari","lat":"33.95","long":"131.93333333333"},{"id":"29290","name":"Hikoshima","lat":"33.916666666667","long":"130.93333333333"},{"id":"14294","name":"Himeji","lat":"34.766666666667","long":"134.63333333333"},{"id":"11714","name":"Hiro","lat":"34.233333333333","long":"132.53333333333"},{"id":"10599","name":"Hirohata","lat":"34.766666666667","long":"134.63333333333"},{"id":"30082","name":"Hiroshima","lat":"34.333333333333","long":"132.41666666667"},{"id":"214835","name":"Iho","lat":"34.75","long":"134.76666666667"},{"id":"14492","name":"Imabari","lat":"34.066666666667","long":"133.01666666667"},{"id":"30089","name":"Imari","lat":"33.266666666667","long":"129.81666666667"},{"id":"14413","name":"Ishikara","lat":"26.466666666667","long":"127.83333333333"},{"id":"14674","name":"Iwakuni","lat":"34.166666666667","long":"132.26666666667"},{"id":"29320","name":"Izumisano","lat":"34.466666666667","long":"135.33333333333"},{"id":"29543","name":"Kagoshima","lat":"31.583333333333","long":"130.55"},{"id":"10692","name":"Kainan","lat":"34.116666666667","long":"135.2"},{"id":"10715","name":"Kakogawa","lat":"34.7","long":"134.83333333333"},{"id":"21417","name":"Kanmon Ko","lat":"33.883333333333","long":"130.88333333333"},{"id":"10032","name":"Kanokawa","lat":"34.183333333333","long":"132.43333333333"},{"id":"30121","name":"Karita","lat":"33.9","long":"130.9"},{"id":"10055","name":"Kashima","lat":"35.916666666667","long":"140.7"},{"id":"10121","name":"Kawasaki","lat":"35.533333333333","long":"139.7"},{"id":"24124","name":"Keihin","lat":"35.416666666667","long":"139.71666666667"},{"id":"10170","name":"Kikuma","lat":"34.033333333333","long":"132.83333333333"},{"id":"10852","name":"Kinwan","lat":"26.366666666667","long":"127.96666666667"},{"id":"29359","name":"Kishiwada","lat":"34.5","long":"135.36666666667"},{"id":"14872","name":"Kitakyushu","lat":"33.916666666667","long":"130.83333333333"},{"id":"15090","name":"Kobe","lat":"34.666666666667","long":"135.2"},{"id":"21505","name":"Kokura","lat":"33.866666666667","long":"130.88333333333"},{"id":"10884","name":"Kudamatsu","lat":"34","long":"131.85"},{"id":"15419","name":"Kure","lat":"34.233333333333","long":"132.53333333333"},{"id":"15439","name":"Kushiro","lat":"42.966666666667","long":"144.36666666667"},{"id":"29392","name":"Marugame","lat":"34.3","long":"133.78333333333"},{"id":"10927","name":"Mategata","lat":"34.1","long":"132.91666666667"},{"id":"10299","name":"Matsuyama","lat":"33.866666666667","long":"132.7"},{"id":"10954","name":"Mega","lat":"34.733333333333","long":"134.7"},{"id":"15510","name":"Miike","lat":"33","long":"130.38333333333"},{"id":"11009","name":"Mitsukojima","lat":"34.183333333333","long":"132.51666666667"},{"id":"10446","name":"Mizushima","lat":"34.5","long":"133.75"},{"id":"21531","name":"Moji","lat":"33.95","long":"130.96666666667"},{"id":"15576","name":"Muroran","lat":"42.333333333333","long":"140.96666666667"},{"id":"15628","name":"Nagasaki","lat":"32.75","long":"129.86666666667"},{"id":"15680","name":"Nagoya","lat":"35.033333333333","long":"136.85"},{"id":"10459","name":"Naha","lat":"26.2","long":"127.66666666667"},{"id":"25932","name":"Namikata","lat":"34.116666666667","long":"132.9"},{"id":"15586","name":"Niigata-Higashi","lat":"38.016666666667","long":"139.21666666667"},{"id":"15689","name":"Niigata-Nishi","lat":"37.9","long":"139.06666666667"},{"id":"15742","name":"Nishihara","lat":"26.216666666667","long":"127.8"},{"id":"10648","name":"Ofunato","lat":"39.05","long":"141.73333333333"},{"id":"214156","name":"Ogishima","lat":"35.5","long":"139.76666666667"},{"id":"29705","name":"Oita","lat":"33.266666666667","long":"131.66666666667"},{"id":"28759","name":"Omishima","lat":"34.266666666667","long":"133"},{"id":"26120","name":"Onoda","lat":"34","long":"131.18333333333"},{"id":"16005","name":"Osaka","lat":"34.65","long":"135.45"},{"id":"10729","name":"Owase","lat":"34.083333333333","long":"136.25"},{"id":"214680","name":"Rokko Island","lat":"34.666666666667","long":"135.2"},{"id":"16264","name":"Sakai","lat":"34.566666666667","long":"135.45"},{"id":"16281","name":"Sakaide","lat":"34.35","long":"133.85"},{"id":"10929","name":"Sakaiminato","lat":"35.533333333333","long":"133.23333333333"},{"id":"16338","name":"Sasebo","lat":"33.166666666667","long":"129.71666666667"},{"id":"210785","name":"Senboku","lat":"34.533333333333","long":"135.4"},{"id":"11108","name":"Shikama","lat":"34.783333333333","long":"134.65"},{"id":"16432","name":"Shimizu","lat":"35.016666666667","long":"138.5"},{"id":"29737","name":"Shimonoseki","lat":"33.95","long":"130.93333333333"},{"id":"16529","name":"Shimotsu","lat":"34.116666666667","long":"135.13333333333"},{"id":"29967","name":"Shirashima","lat":"34","long":"130.75"},{"id":"16600","name":"Susaki","lat":"33.4","long":"133.3"},{"id":"14222","name":"Takasago","lat":"34.733333333333","long":"134.78333333333"},{"id":"14499","name":"Takehara","lat":"34.3","long":"132.96666666667"},{"id":"20502","name":"Tamashima","lat":"34.483333333333","long":"133.66666666667"},{"id":"16769","name":"Tobata","lat":"33.916666666667","long":"130.78333333333"},{"id":"214891","name":"Tokai","lat":"35.033333333333","long":"136.85"},{"id":"16801","name":"Tokuyama","lat":"34.05","long":"131.8"},{"id":"16940","name":"Tokyo","lat":"35.65","long":"139.78333333333"},{"id":"11149","name":"Tonda","lat":"34.033333333333","long":"131.73333333333"},{"id":"11195","name":"Toyama","lat":"36.75","long":"137.21666666667"},{"id":"16951","name":"Toyama-Shinko","lat":"36.783333333333","long":"137.1"},{"id":"17063","name":"Tsuruga","lat":"35.65","long":"136.06666666667"},{"id":"17101","name":"Ube","lat":"33.933333333333","long":"131.25"},{"id":"215892","name":"Ukishima","lat":"35.516666666667","long":"139.76666666667"},{"id":"17173","name":"Wakamatsu","lat":"33.9","long":"130.8"},{"id":"17204","name":"Wakayama","lat":"34.216666666667","long":"135.13333333333"},{"id":"17299","name":"Yawata","lat":"33.866666666667","long":"130.81666666667"},{"id":"17332","name":"Yokkaichi","lat":"34.95","long":"136.63333333333"},{"id":"29813","name":"Yokohama","lat":"35.45","long":"139.65"},{"id":"17514","name":"Yokosuka","lat":"35.283333333333","long":"139.65"}]