[{"id":"25913","name":"Andoany","lat":"-13.4","long":"48.283333333333"},{"id":"15548","name":"Antalaha","lat":"-14.9","long":"50.283333333333"},{"id":"21107","name":"Antsiranana","lat":"-12.216666666667","long":"49.316666666667"},{"id":"19761","name":"Diego Suarez","lat":"-12.216666666667","long":"49.316666666667"},{"id":"22345","name":"Fort Dauphin","lat":"-25.033333333333","long":"47"},{"id":"12008","name":"Mahajanga","lat":"-15.716666666667","long":"46.333333333333"},{"id":"19786","name":"Majunga","lat":"-15.716666666667","long":"46.333333333333"},{"id":"15583","name":"Manakara","lat":"-22.15","long":"48.016666666667"},{"id":"25825","name":"Mananjary","lat":"-21.233333333333","long":"48.35"},{"id":"25873","name":"Morondava","lat":"-20.283333333333","long":"44.266666666667"},{"id":"10503","name":"Nosy Be","lat":"-13.4","long":"48.283333333333"},{"id":"21121","name":"Tamatave","lat":"-18.15","long":"49.416666666667"},{"id":"19818","name":"Toamasina","lat":"-18.15","long":"49.416666666667"},{"id":"26036","name":"Tolagnaro","lat":"-25.033333333333","long":"47"},{"id":"19872","name":"Tulear","lat":"-23.35","long":"43.666666666667"}]