[{"id":"21617","name":"Agadir","lat":"30.433333333333","long":"-9.6333333333333"},{"id":"19875","name":"Al Hoceima","lat":"35.25","long":"-3.9166666666667"},{"id":"21646","name":"Casablanca","lat":"33.6","long":"-7.6166666666667"},{"id":"21764","name":"Kenitra","lat":"34.266666666667","long":"-6.5833333333333"},{"id":"21872","name":"Mohammedia","lat":"33.75","long":"-7.3666666666667"},{"id":"19910","name":"Port de Fedala","lat":"33.75","long":"-7.3666666666667"},{"id":"18664","name":"Port Nador","lat":"35.3","long":"-2.9166666666667"},{"id":"18689","name":"Safi","lat":"32.3","long":"-9.25"},{"id":"21925","name":"Tangier","lat":"35.783333333333","long":"-5.8"}]