[{"id":"23917","name":"Auckland","lat":"-36.85","long":"174.8"},{"id":"23944","name":"Bluff","lat":"-46.6","long":"168.33333333333"},{"id":"28794","name":"Christchurch","lat":"-43.55","long":"172.66666666667"},{"id":"23432","name":"Dunedin","lat":"-45.916666666667","long":"170.5"},{"id":"11331","name":"Eastland Port","lat":"-38.666666666667","long":"178.01666666667"},{"id":"252000","name":"Gisborne","lat":"-38.666666666667","long":"178.01666666667"},{"id":"24029","name":"Lyttelton","lat":"-43.616666666667","long":"172.71666666667"},{"id":"20492","name":"Marsden Point","lat":"-35.833333333333","long":"174.5"},{"id":"24070","name":"Napier","lat":"-39.466666666667","long":"176.91666666667"},{"id":"24112","name":"Nelson","lat":"-41.266666666667","long":"173.26666666667"},{"id":"17368","name":"New Plymouth","lat":"-39.05","long":"174.03333333333"},{"id":"24215","name":"Otago Harbour","lat":"-45.833333333333","long":"170.61666666667"},{"id":"24242","name":"Picton","lat":"-41.283333333333","long":"174.03333333333"},{"id":"23472","name":"Port Chalmers","lat":"-45.816666666667","long":"170.7"},{"id":"23412","name":"Port Marlborough","lat":"-41.283333333333","long":"174.03333333333"},{"id":"29610","name":"Port Taranaki","lat":"-39.05","long":"174.03333333333"},{"id":"23501","name":"Ravensbourne","lat":"-45.9","long":"170.58333333333"},{"id":"24310","name":"Tauranga","lat":"-37.65","long":"176.18333333333"},{"id":"11553","name":"Timaru","lat":"-44.4","long":"171.25"},{"id":"24451","name":"Wanganui","lat":"-39.95","long":"174.98333333333"},{"id":"24555","name":"Wellington","lat":"-41.3","long":"174.76666666667"},{"id":"24637","name":"Whangarei","lat":"-35.833333333333","long":"174.5"}]