[{"id":"10531","name":"Apapa","lat":"6.4166666666667","long":"3.4166666666667"},{"id":"24940","name":"Bonny Inshore Terminal","lat":"4.4333333333333","long":"7.15"},{"id":"25687","name":"Calabar","lat":"4.9666666666667","long":"8.3166666666667"},{"id":"21818","name":"Dawes Island","lat":"4.65","long":"6.9666666666667"},{"id":"21804","name":"Dockyard Creek","lat":"4.75","long":"7"},{"id":"25192","name":"Escravos Oil Terminal","lat":"5.5","long":"5"},{"id":"25254","name":"Forcados Oil Terminal","lat":"5.1666666666667","long":"5.1833333333333"},{"id":"25387","name":"Lagos","lat":"6.4166666666667","long":"3.4166666666667"},{"id":"25449","name":"Okrika","lat":"4.75","long":"7.0666666666667"},{"id":"25551","name":"Pennington","lat":"4.25","long":"5.6"},{"id":"25591","name":"Port Harcourt","lat":"4.7666666666667","long":"7"},{"id":"25612","name":"Qua Iboe","lat":"4.55","long":"7.9833333333333"}]