[{"id":"22156","name":"Dar es Salaam","lat":"-6.8333333333333","long":"39.283333333333"},{"id":"22024","name":"Mjimwema Oil Terminal","lat":"-6.8166666666667","long":"39.35"},{"id":"22168","name":"Mtwara","lat":"-10.266666666667","long":"40.183333333333"},{"id":"22197","name":"Tanga","lat":"-5.0666666666667","long":"39.133333333333"},{"id":"214138","name":"Zanzibar City","lat":"-6.1666666666667","long":"39.183333333333"}]