[{"id":"22088","name":"Aberdeen","lat":"46.933333333333","long":"-123.85"},{"id":"15445","name":"Alabama Inland Ports","lat":"32.416666666667","long":"-87.033333333333"},{"id":"11987","name":"Albany","lat":"42.65","long":"-73.75"},{"id":"18569","name":"Alliance","lat":"29.666666666667","long":"-89.966666666667"},{"id":"22385","name":"Anacortes","lat":"48.516666666667","long":"-122.6"},{"id":"12018","name":"Anchorage","lat":"61.233333333333","long":"-149.88333333333"},{"id":"12056","name":"Astoria","lat":"46.266666666667","long":"-124.05"},{"id":"20900","name":"Atreco","lat":"29.983333333333","long":"-93.883333333333"},{"id":"25602","name":"Avon","lat":"38.083333333333","long":"-122.15"},{"id":"18834","name":"Avondale","lat":"29.916666666667","long":"-90.183333333333"},{"id":"12233","name":"Baltimore","lat":"39.283333333333","long":"-76.583333333333"},{"id":"12253","name":"Bangor","lat":"44.816666666667","long":"-68.783333333333"},{"id":"248878","name":"Barbours Cut","lat":"29.683333333333","long":"-95"},{"id":"11283","name":"Baton Rouge","lat":"30.466666666667","long":"-91.183333333333"},{"id":"248880","name":"Bayonne","lat":"40.666666666667","long":"-74.1"},{"id":"26975","name":"Bayport","lat":"29.75","long":"-95.333333333333"},{"id":"10140","name":"Baytown","lat":"29.733333333333","long":"-95.016666666667"},{"id":"12309","name":"Beaumont","lat":"30.083333333333","long":"-94.083333333333"},{"id":"14736","name":"Benicia","lat":"38.05","long":"-122.16666666667"},{"id":"14533","name":"Big Bend","lat":"27.8","long":"-82.416666666667"},{"id":"210759","name":"Black Rock Harbor","lat":"41.15","long":"-73.216666666667"},{"id":"27239","name":"Blount Island","lat":"30.4","long":"-81.383333333333"},{"id":"12840","name":"Boca Grande","lat":"26.716666666667","long":"-82.25"},{"id":"26350","name":"Boggy Bayou","lat":"29.733333333333","long":"-95.133333333333"},{"id":"12475","name":"Boston","lat":"42.35","long":"-71.083333333333"},{"id":"27484","name":"Brabazos","lat":"28.95","long":"-95.35"},{"id":"10023","name":"Brayton Point","lat":"41.7","long":"-71.166666666667"},{"id":"12551","name":"Bridgeport","lat":"34.966666666667","long":"-85.7"},{"id":"26495","name":"Bridgeport","lat":"34.966666666667","long":"-85.7"},{"id":"210846","name":"Bristol Harbor","lat":"41.666666666667","long":"-71.283333333333"},{"id":"12602","name":"Brownsville","lat":"25.95","long":"-97.4"},{"id":"11817","name":"Bucksport","lat":"44.583333333333","long":"-68.8"},{"id":"12629","name":"Buffalo","lat":"42.883333333333","long":"-78.883333333333"},{"id":"211330","name":"Burlington","lat":"44.466666666667","long":"-73.233333333333"},{"id":"10164","name":"Burnside","lat":"30.433333333333","long":"-91.2"},{"id":"28017","name":"Calumet","lat":"41.833333333333","long":"-87.633333333333"},{"id":"21693","name":"Camden","lat":"39.933333333333","long":"-75.133333333333"},{"id":"12761","name":"Cape Cod Canal","lat":"41.716666666667","long":"-70.6"},{"id":"18678","name":"Chalmette","lat":"29.933333333333","long":"-90"},{"id":"12823","name":"Charleston","lat":"32.783333333333","long":"-79.933333333333"},{"id":"30110","name":"Chelsea","lat":"42.35","long":"-71.083333333333"},{"id":"14937","name":"Chesapeake","lat":"36.75","long":"-76.25"},{"id":"22297","name":"Chester","lat":"39.866666666667","long":"-75.433333333333"},{"id":"12910","name":"Chicago","lat":"41.833333333333","long":"-87.633333333333"},{"id":"12922","name":"Cleveland","lat":"41.516666666667","long":"-81.716666666667"},{"id":"26060","name":"Columbia","lat":"31.3","long":"-85.133333333333"},{"id":"21390","name":"Columbia/Snake River System","lat":"46.25","long":"-123.91666666667"},{"id":"27271","name":"Commodore's Point","lat":"30.4","long":"-81.383333333333"},{"id":"13048","name":"Coos Bay","lat":"43.366666666667","long":"-124.36666666667"},{"id":"26151","name":"Cordova","lat":"60.55","long":"-145.76666666667"},{"id":"13340","name":"Corpus Christi","lat":"27.8","long":"-97.383333333333"},{"id":"25357","name":"Crockett","lat":"38.1","long":"-122.36666666667"},{"id":"213403","name":"Dames Point","lat":"30.416666666667","long":"-81.416666666667"},{"id":"213419","name":"Deer Park","lat":"29.7","long":"-95.133333333333"},{"id":"213803","name":"Delaware City","lat":"39.583333333333","long":"-75.6"},{"id":"25852","name":"Demopolis","lat":"32.516666666667","long":"-87.833333333333"},{"id":"13381","name":"Detroit","lat":"42.333333333333","long":"-83.033333333333"},{"id":"11652","name":"Dodge Island","lat":"25.766666666667","long":"-80.166666666667"},{"id":"10217","name":"Donaldsonville","lat":"30.083333333333","long":"-91"},{"id":"11819","name":"Drift River Marine Terminal","lat":"60.55","long":"-152.13333333333"},{"id":"13461","name":"Duluth-Superior","lat":"46.733333333333","long":"-92.15"},{"id":"29427","name":"Dundalk","lat":"39.25","long":"-76.516666666667"},{"id":"20991","name":"Dutch Harbor","lat":"53.9","long":"-166.51666666667"},{"id":"14420","name":"East Bay","lat":"27.9","long":"-82.433333333333"},{"id":"12866","name":"Eddystone","lat":"39.866666666667","long":"-75.433333333333"},{"id":"21060","name":"El Segundo Terminal","lat":"33.916666666667","long":"-118.43333333333"},{"id":"24984","name":"Elizabeth","lat":"40.666666666667","long":"-74.166666666667"},{"id":"26216","name":"Eufaula","lat":"31.916666666667","long":"-85.166666666667"},{"id":"10248","name":"Eureka","lat":"40.8","long":"-124.16666666667"},{"id":"21906","name":"Everett","lat":"47.983333333333","long":"-122.25"},{"id":"13518","name":"Everett","lat":"47.983333333333","long":"-122.25"},{"id":"1000018","name":"Everglades","lat":"26.083333333333","long":"-80.066666666667"},{"id":"25055","name":"Fairport Harbor","lat":"41.75","long":"-81.283333333333"},{"id":"13546","name":"Fall River","lat":"41.7","long":"-71.166666666667"},{"id":"13573","name":"Ferndale","lat":"48.816666666667","long":"-122.71666666667"},{"id":"11827","name":"Fort Lauderdale","lat":"26.1","long":"-80.116666666667"},{"id":"21142","name":"Fort Pierce","lat":"27.466666666667","long":"-80.316666666667"},{"id":"13589","name":"Freeport","lat":"28.95","long":"-95.266666666667"},{"id":"213417","name":"Galena Park","lat":"29.733333333333","long":"-95.266666666667"},{"id":"13626","name":"Galveston","lat":"29.283333333333","long":"-94.833333333333"},{"id":"10274","name":"Geismar","lat":"30.216666666667","long":"-91.016666666667"},{"id":"248884","name":"Girard Point","lat":"39.9","long":"-75.2"},{"id":"13684","name":"Grays Harbor","lat":"46.933333333333","long":"-123.85"},{"id":"26537","name":"Greens Bayou","lat":"29.75","long":"-95.166666666667"},{"id":"20791","name":"Greenwich Point","lat":"39.9","long":"-75.133333333333"},{"id":"18881","name":"Gretna","lat":"29.85","long":"-90.066666666667"},{"id":"12054","name":"Groton","lat":"41.35","long":"-72.066666666667"},{"id":"13721","name":"Gulfport","lat":"30.35","long":"-89.083333333333"},{"id":"12241","name":"Haines","lat":"59.233333333333","long":"-135.45"},{"id":"11486","name":"Hampton Roads","lat":"36.966666666667","long":"-76.333333333333"},{"id":"19746","name":"Hawkins Point","lat":"39.2","long":"-76.533333333333"},{"id":"25559","name":"Hercules","lat":"38.083333333333","long":"-122.45"},{"id":"14306","name":"Hillsborough Bay","lat":"27.8","long":"-82.416666666667"},{"id":"24169","name":"Hilo","lat":"19.733333333333","long":"-155.08333333333"},{"id":"24198","name":"Honolulu","lat":"21.266666666667","long":"-157.88333333333"},{"id":"22136","name":"Hoquiam","lat":"46.933333333333","long":"-123.85"},{"id":"13909","name":"Houston","lat":"29.75","long":"-95.333333333333"},{"id":"13508","name":"Humboldt Bay","lat":"40.766666666667","long":"-124.23333333333"},{"id":"26225","name":"Jacintoport","lat":"29.75","long":"-95.1"},{"id":"14152","name":"Jacksonville","lat":"30.4","long":"-81.383333333333"},{"id":"30074","name":"Jeffries Point","lat":"42.35","long":"-71.083333333333"},{"id":"12316","name":"Juneau","lat":"58.3","long":"-134.41666666667"},{"id":"12466","name":"Key West","lat":"24.566666666667","long":"-81.8"},{"id":"21425","name":"Kodiak","lat":"57.783333333333","long":"-152.4"},{"id":"27590","name":"Lake Calumet Harbor","lat":"41.833333333333","long":"-87.633333333333"},{"id":"14309","name":"Lake Charles","lat":"30.216666666667","long":"-93.216666666667"},{"id":"27544","name":"Lemont","lat":"41.833333333333","long":"-87.633333333333"},{"id":"19733","name":"Locust Point","lat":"39.266666666667","long":"-76.566666666667"},{"id":"14399","name":"Long Beach","lat":"33.75","long":"-118.2"},{"id":"14635","name":"Los Angeles","lat":"33.716666666667","long":"-118.26666666667"},{"id":"11619","name":"Lummus Island","lat":"25.766666666667","long":"-80.166666666667"},{"id":"213420","name":"Manchester","lat":"29.7","long":"-95.133333333333"},{"id":"21487","name":"March Point","lat":"48.5","long":"-122.56666666667"},{"id":"213786","name":"Marcus Hook","lat":"39.816666666667","long":"-75.416666666667"},{"id":"211830","name":"Mare Island","lat":"38.066666666667","long":"-122.25"},{"id":"18896","name":"Marrero","lat":"29.9","long":"-90.1"},{"id":"25533","name":"Martinez","lat":"38.083333333333","long":"-122.16666666667"},{"id":"20838","name":"McDuffie Island","lat":"30.65","long":"-88.033333333333"},{"id":"211382","name":"Melville","lat":"41.583333333333","long":"-71.283333333333"},{"id":"18728","name":"Meraux","lat":"29.916666666667","long":"-89.933333333333"},{"id":"14804","name":"Miami","lat":"25.766666666667","long":"-80.166666666667"},{"id":"247412","name":"Milwaukee","lat":"43.016666666667","long":"87.883333333333"},{"id":"11596","name":"Mobile","lat":"30.666666666667","long":"-88.033333333333"},{"id":"26034","name":"Montgomery","lat":"32.366666666667","long":"-86.333333333333"},{"id":"14948","name":"Morehead City","lat":"34.716666666667","long":"-76.7"},{"id":"18658","name":"National City","lat":"32.7","long":"-117.16666666667"},{"id":"213311","name":"Nederland","lat":"30","long":"-93.983333333333"},{"id":"15055","name":"New Bedford","lat":"41.516666666667","long":"-70.85"},{"id":"15073","name":"New Haven","lat":"41.25","long":"-72.9"},{"id":"25007","name":"New Jersey","lat":"40.666666666667","long":"-74.166666666667"},{"id":"15100","name":"New London","lat":"41.35","long":"-72.083333333333"},{"id":"15151","name":"New Orleans","lat":"29.95","long":"-90.066666666667"},{"id":"15401","name":"New York & New Jersey","lat":"40.7","long":"-74.016666666667"},{"id":"24949","name":"Newark","lat":"40.7","long":"-74.166666666667"},{"id":"21614","name":"Newport (Rhode Island)","lat":"41.483333333333","long":"-71.333333333333"},{"id":"248868","name":"Newport News","lat":"36.983333333333","long":"-76.433333333333"},{"id":"21194","name":"Nikiski","lat":"60.683333333333","long":"-151.4"},{"id":"12744","name":"Nome","lat":"64.516666666667","long":"-165.41666666667"},{"id":"12702","name":"Norfolk","lat":"36.85","long":"-76.316666666667"},{"id":"217705","name":"North Kingstown","lat":"41.8","long":"-71.4"},{"id":"21629","name":"Northport","lat":"40.933333333333","long":"-73.366666666667"},{"id":"21659","name":"Northville","lat":"41","long":"-72.633333333333"},{"id":"25737","name":"Oleum","lat":"38.1","long":"-122.43333333333"},{"id":"15552","name":"Orange","lat":"30.083333333333","long":"-93.683333333333"},{"id":"25419","name":"Ozol","lat":"38.05","long":"-122.26666666667"},{"id":"15617","name":"Palm Beach","lat":"26.766666666667","long":"-80.05"},{"id":"15660","name":"Panama City","lat":"30.133333333333","long":"-85.666666666667"},{"id":"213418","name":"Pasadena","lat":"29.7","long":"-95.233333333333"},{"id":"213780","name":"Paulsboro","lat":"39.85","long":"-75.25"},{"id":"211410","name":"Penns Grove","lat":"39.716666666667","long":"-75.466666666667"},{"id":"213764","name":"Pennsauken","lat":"39.966666666667","long":"-75.05"},{"id":"15748","name":"Pensacola","lat":"30.4","long":"-87.216666666667"},{"id":"210898","name":"Perth Amboy","lat":"40.5","long":"-74.266666666667"},{"id":"26318","name":"Philadelphia","lat":"39.95","long":"-75.166666666667"},{"id":"26325","name":"Phoenix City","lat":"32.466666666667","long":"-85.016666666667"},{"id":"10497","name":"Piney Point","lat":"38.133333333333","long":"-76.533333333333"},{"id":"211346","name":"Pittsburg","lat":"38.033333333333","long":"-121.88333333333"},{"id":"15968","name":"Port Arthur","lat":"29.85","long":"-93.933333333333"},{"id":"12716","name":"Port Canaveral","lat":"28.366666666667","long":"-80.516666666667"},{"id":"211348","name":"Port Chester Harbor","lat":"40.983333333333","long":"-73.666666666667"},{"id":"213406","name":"Port Covington","lat":"39.25","long":"-76.6"},{"id":"16041","name":"Port Everglades","lat":"26.083333333333","long":"-80.066666666667"},{"id":"21913","name":"Port Huron","lat":"42.983333333333","long":"-82.466666666667"},{"id":"13020","name":"Port Isabel","lat":"26.066666666667","long":"-97.233333333333"},{"id":"21943","name":"Port Jefferson","lat":"40.95","long":"-73.066666666667"},{"id":"21964","name":"Port Manatee","lat":"27.633333333333","long":"-82.55"},{"id":"10535","name":"Port Neches","lat":"30","long":"-93.95"},{"id":"24929","name":"Port Newark","lat":"40.7","long":"-74.166666666667"},{"id":"30034","name":"Port Richmond","lat":"39.9","long":"-75.133333333333"},{"id":"16302","name":"Port San Luis","lat":"35.166666666667","long":"-120.75"},{"id":"16275","name":"Port St Joe","lat":"29.816666666667","long":"-85.3"},{"id":"14343","name":"Port Sutton","lat":"27.9","long":"-82.433333333333"},{"id":"22043","name":"Port Townsend","lat":"48.116666666667","long":"-122.75"},{"id":"16109","name":"Portland (Maine)","lat":"43.65","long":"-70.233333333333"},{"id":"16172","name":"Portland (Oregon)","lat":"45.533333333333","long":"-122.71666666667"},{"id":"14901","name":"Portsmouth","lat":"36.833333333333","long":"-76.283333333333"},{"id":"13327","name":"Portsmouth (New Hampshire)","lat":"43.066666666667","long":"-70.7"},{"id":"16404","name":"Providence","lat":"41.8","long":"-71.4"},{"id":"14477","name":"Rattlesnake","lat":"27.883333333333","long":"-82.533333333333"},{"id":"28707","name":"Revere","lat":"42.35","long":"-71.083333333333"},{"id":"16522","name":"Richmond (Virginia)","lat":"37.45","long":"-77.416666666667"},{"id":"16551","name":"Riverhead Terminal","lat":"41","long":"-72.633333333333"},{"id":"214678","name":"Rockport","lat":"27.6","long":"-82.5"},{"id":"22076","name":"Sabine","lat":"29.7","long":"-93.866666666667"},{"id":"22129","name":"Salem","lat":"42.516666666667","long":"-70.866666666667"},{"id":"16784","name":"San Diego","lat":"32.7","long":"-117.16666666667"},{"id":"16892","name":"San Francisco","lat":"37.8","long":"-122.41666666667"},{"id":"211429","name":"San Pedro Harbor","lat":"33.716666666667","long":"-118.26666666667"},{"id":"22161","name":"Sandwich","lat":"41.766666666667","long":"-70.516666666667"},{"id":"22183","name":"Santa Barbara","lat":"34.416666666667","long":"-119.68333333333"},{"id":"16923","name":"Savannah","lat":"32.083333333333","long":"-81.1"},{"id":"16948","name":"Searsport","lat":"44.45","long":"-68.916666666667"},{"id":"26481","name":"Seattle","lat":"47.65","long":"-122.33333333333"},{"id":"25629","name":"Selby","lat":"38.1","long":"-122.4"},{"id":"25892","name":"Selma","lat":"32.4","long":"-87.016666666667"},{"id":"17107","name":"Seward","lat":"60.116666666667","long":"-149.43333333333"},{"id":"17171","name":"Sitka","lat":"57.05","long":"-135.33333333333"},{"id":"11674","name":"Skagway","lat":"59.45","long":"-135.3"},{"id":"20799","name":"Smith's Bluff","lat":"30","long":"-93.983333333333"},{"id":"213405","name":"South Locust Point","lat":"39.266666666667","long":"-76.566666666667"},{"id":"213404","name":"Sparrow's Point","lat":"39.2","long":"-76.466666666667"},{"id":"12479","name":"St Bernard Port","lat":"29.916666666667","long":"-89.916666666667"},{"id":"13400","name":"St Petersburg","lat":"27.8","long":"-82.633333333333"},{"id":"210786","name":"Stamford Harbor","lat":"41.016666666667","long":"-73.533333333333"},{"id":"17303","name":"Stockton","lat":"37.95","long":"-121.31666666667"},{"id":"10469","name":"Superior","lat":"46.733333333333","long":"-92.083333333333"},{"id":"17342","name":"Tacoma","lat":"47.25","long":"-122.41666666667"},{"id":"17473","name":"Tampa","lat":"27.916666666667","long":"-82.45"},{"id":"17546","name":"Texas City","lat":"29.383333333333","long":"-94.9"},{"id":"26569","name":"Texport","lat":"29.716666666667","long":"-95.25"},{"id":"20810","name":"Three Mile Creek","lat":"30.733333333333","long":"-88.05"},{"id":"216556","name":"Tiverton","lat":"41.633333333333","long":"-71.216666666667"},{"id":"26107","name":"Tuscaloosa","lat":"33.2","long":"-87.55"},{"id":"28349","name":"Unalaska","lat":"53.9","long":"-166.51666666667"},{"id":"17626","name":"Valdez","lat":"61.133333333333","long":"-146.35"},{"id":"25768","name":"Vallejo","lat":"38.15","long":"-122.43333333333"},{"id":"17636","name":"Vancouver","lat":"45.6","long":"-122.66666666667"},{"id":"14500","name":"Weedon Island","lat":"27.866666666667","long":"-82.6"},{"id":"18792","name":"West Wego","lat":"29.916666666667","long":"-90.15"},{"id":"22256","name":"Whittier","lat":"60.766666666667","long":"-148.68333333333"},{"id":"23456","name":"Wilmington (Delaware)","lat":"39.75","long":"-75.5"},{"id":"17711","name":"Wilmington (North Carolina)","lat":"34.233333333333","long":"-77.95"},{"id":"24494","name":"Winterport","lat":"44.633333333333","long":"-68.883333333333"},{"id":"10688","name":"Yorktown","lat":"37.233333333333","long":"-76.5"}]