[{"id":"25823","name":"Aberdeen","lat":"57.133333333333","long":"-2.0666666666667"},{"id":"29679","name":"Appledore","lat":"51.05","long":"-4.2"},{"id":"26064","name":"Arbroath","lat":"56.55","long":"-2.5833333333333"},{"id":"26186","name":"Ardrossan","lat":"55.633333333333","long":"-4.8166666666667"},{"id":"28392","name":"Avonmouth","lat":"51.5","long":"-2.7"},{"id":"26235","name":"Ayr","lat":"55.466666666667","long":"-4.65"},{"id":"22809","name":"Ballylumford","lat":"54.85","long":"-5.7833333333333"},{"id":"26519","name":"Barrow-in-Furness","lat":"54.1","long":"-3.2166666666667"},{"id":"26583","name":"Barry","lat":"51.383333333333","long":"-3.2666666666667"},{"id":"19597","name":"Barton","lat":"53.466666666667","long":"-2.3833333333333"},{"id":"26616","name":"Belfast","lat":"54.583333333333","long":"-5.9166666666667"},{"id":"29720","name":"Bideford","lat":"51.016666666667","long":"-4.2"},{"id":"26684","name":"Bird Port","lat":"51.566666666667","long":"-2.9666666666667"},{"id":"19651","name":"Birkenhead","lat":"53.4","long":"-3.0333333333333"},{"id":"26754","name":"Blyth","lat":"55.133333333333","long":"-1.5"},{"id":"23119","name":"Bowling","lat":"55.933333333333","long":"-4.5"},{"id":"10096","name":"Braefoot Bay","lat":"56.033333333333","long":"-3.3"},{"id":"29764","name":"Brightlingsea","lat":"51.8","long":"1.0333333333333"},{"id":"26962","name":"Bristol","lat":"51.45","long":"-2.6333333333333"},{"id":"10095","name":"Brixham","lat":"50.4","long":"-3.5"},{"id":"213705","name":"Brodick Harbour","lat":"55.6","long":"-5.15"},{"id":"210948","name":"Bromborough","lat":"53.366666666667","long":"-2.9833333333333"},{"id":"27048","name":"Burntisland","lat":"56.05","long":"-3.2333333333333"},{"id":"11745","name":"Burray","lat":"58.85","long":"-2.9333333333333"},{"id":"25864","name":"Cairnryan","lat":"54.966666666667","long":"-5.0166666666667"},{"id":"27112","name":"Campbeltown","lat":"55.433333333333","long":"-5.6"},{"id":"213603","name":"Canvey Island","lat":"51.516666666667","long":"0.63333333333333"},{"id":"27166","name":"Cardiff","lat":"51.45","long":"-3.15"},{"id":"11277","name":"Cattewater Harbour","lat":"50.366666666667","long":"-4.0166666666667"},{"id":"27270","name":"Charlestown","lat":"50.333333333333","long":"-4.75"},{"id":"19015","name":"Chatham Docks","lat":"51.4","long":"0.55"},{"id":"27351","name":"Colchester","lat":"51.9","long":"0.9"},{"id":"29051","name":"Coolkeragh","lat":"55.05","long":"-7.25"},{"id":"28502","name":"Coryton","lat":"51.516666666667","long":"0.53333333333333"},{"id":"27447","name":"Cowes","lat":"50.75","long":"-1.3"},{"id":"27511","name":"Cromarty Firth","lat":"57.683333333333","long":"-4.0333333333333"},{"id":"28582","name":"Dagenham","lat":"51.55","long":"0.13333333333333"},{"id":"27495","name":"Dartmouth","lat":"50.35","long":"-3.5833333333333"},{"id":"27561","name":"Dover","lat":"51.116666666667","long":"1.3166666666667"},{"id":"221979","name":"Dover Strait","lat":"51.133333333333","long":"1.3333333333333"},{"id":"27597","name":"Dundee","lat":"56.466666666667","long":"-2.9666666666667"},{"id":"29893","name":"Dunoon","lat":"55.933333333333","long":"-4.9166666666667"},{"id":"19500","name":"Eastham","lat":"53.35","long":"-2.9666666666667"},{"id":"18505","name":"Eccles","lat":"53.483333333333","long":"-2.35"},{"id":"19479","name":"Ellesmere Port","lat":"53.283333333333","long":"-2.9"},{"id":"27677","name":"Falmouth","lat":"50.15","long":"-5.05"},{"id":"11733","name":"Fawley","lat":"50.816666666667","long":"-1.3333333333333"},{"id":"25732","name":"Felixstowe","lat":"51.95","long":"1.3333333333333"},{"id":"24044","name":"Fingringhoe","lat":"51.816666666667","long":"0.98333333333333"},{"id":"29934","name":"Finnart","lat":"56.116666666667","long":"-4.8333333333333"},{"id":"27758","name":"Fishguard","lat":"52.016666666667","long":"-4.9666666666667"},{"id":"21161","name":"Flotta Terminal","lat":"58.866666666667","long":"-3.1166666666667"},{"id":"27816","name":"Folkestone","lat":"51.083333333333","long":"1.2"},{"id":"30191","name":"Forth Ports","lat":"56.083333333333","long":"-3.25"},{"id":"27872","name":"Fowey","lat":"50.35","long":"-4.6333333333333"},{"id":"27952","name":"Garston","lat":"53.35","long":"-2.9"},{"id":"29992","name":"Glasgow","lat":"55.866666666667","long":"-4.35"},{"id":"30003","name":"Gourock","lat":"56.116666666667","long":"-4.8333333333333"},{"id":"28109","name":"Grangemouth","lat":"56.033333333333","long":"-3.6833333333333"},{"id":"28136","name":"Granton","lat":"55.983333333333","long":"-3.2166666666667"},{"id":"213604","name":"Gravesend","lat":"51.416666666667","long":"0.41666666666667"},{"id":"28557","name":"Grays","lat":"51.45","long":"0.33333333333333"},{"id":"23639","name":"Great Yarmouth","lat":"52.566666666667","long":"1.7333333333333"},{"id":"222150","name":"Greenock","lat":"55.95","long":"-4.75"},{"id":"213605","name":"Greenwich","lat":"51.483333333333","long":"0"},{"id":"28165","name":"Grimsby","lat":"53.583333333333","long":"-0.066666666666667"},{"id":"13586","name":"Hamble","lat":"50.833333333333","long":"-1.2833333333333"},{"id":"28227","name":"Hartlepool","lat":"54.683333333333","long":"-1.2"},{"id":"28269","name":"Harwich","lat":"51.95","long":"1.25"},{"id":"28316","name":"Heysham","lat":"54.033333333333","long":"-2.9166666666667"},{"id":"11806","name":"Holm","lat":"58.85","long":"-2.85"},{"id":"28361","name":"Holyhead","lat":"53.316666666667","long":"-4.6166666666667"},{"id":"28382","name":"Hound Point","lat":"56","long":"-3.35"},{"id":"24593","name":"Howden","lat":"53.75","long":"-0.86666666666667"},{"id":"10199","name":"Howdendyke","lat":"53.75","long":"-0.86666666666667"},{"id":"28438","name":"Hull","lat":"53.733333333333","long":"-0.23333333333333"},{"id":"28490","name":"Immingham","lat":"53.633333333333","long":"-0.18333333333333"},{"id":"248873","name":"Ince","lat":"53.283333333333","long":"-2.8166666666667"},{"id":"28517","name":"Invergordon","lat":"57.7","long":"-4.1666666666667"},{"id":"28552","name":"Inverness","lat":"57.483333333333","long":"-4.2333333333333"},{"id":"10424","name":"Ipswich","lat":"52.05","long":"1.1666666666667"},{"id":"18485","name":"Irlam","lat":"53.466666666667","long":"-2.4166666666667"},{"id":"28601","name":"Irvine","lat":"55.6","long":"-4.6833333333333"},{"id":"18933","name":"Isle Of Grain","lat":"51.433333333333","long":"0.71666666666667"},{"id":"10210","name":"Killingholme","lat":"53.666666666667","long":"-0.23333333333333"},{"id":"28630","name":"King's Lynn","lat":"52.75","long":"0.4"},{"id":"19408","name":"Kingsnorth","lat":"51.416666666667","long":"0.6"},{"id":"28657","name":"Kirkcaldy","lat":"56.116666666667","long":"-3.15"},{"id":"28714","name":"Kirkwall","lat":"58.983333333333","long":"-2.95"},{"id":"211141","name":"Lamlash Harbour","lat":"55.533333333333","long":"-5.1"},{"id":"28758","name":"Lancaster","lat":"54.05","long":"-2.7833333333333"},{"id":"213561","name":"Largs","lat":"55.8","long":"-4.8666666666667"},{"id":"28797","name":"Larne","lat":"54.85","long":"-5.7833333333333"},{"id":"28855","name":"Leith","lat":"55.983333333333","long":"-3.1666666666667"},{"id":"28888","name":"Lerwick","lat":"60.15","long":"-1.1333333333333"},{"id":"214193","name":"Lisahally Port","lat":"55.033333333333","long":"-7.2666666666667"},{"id":"29002","name":"Liverpool","lat":"53.466666666667","long":"-3.0333333333333"},{"id":"29239","name":"London","lat":"51.5","long":"-0.066666666666667"},{"id":"29296","name":"Londonderry","lat":"55.033333333333","long":"-7.2666666666667"},{"id":"11707","name":"Longhope","lat":"58.816666666667","long":"-3.1666666666667"},{"id":"29349","name":"Lowestoft","lat":"52.483333333333","long":"1.75"},{"id":"10831","name":"Lydney","lat":"51.733333333333","long":"-2.5333333333333"},{"id":"11730","name":"Lyness","lat":"58.833333333333","long":"-3.1833333333333"},{"id":"19555","name":"Manchester","lat":"53.483333333333","long":"-2.2333333333333"},{"id":"29410","name":"Manchester Ship Canal","lat":"53.316666666667","long":"-2.95"},{"id":"214194","name":"Maydown","lat":"55.05","long":"-7.25"},{"id":"29476","name":"Medway Ports","lat":"51.416666666667","long":"0.66666666666667"},{"id":"29505","name":"Methil","lat":"56.183333333333","long":"-3.0166666666667"},{"id":"214894","name":"Middlesbrough","lat":"54.583333333333","long":"-1.2333333333333"},{"id":"29509","name":"Milford Docks","lat":"51.7","long":"-5.05"},{"id":"10966","name":"Milford Haven","lat":"51.7","long":"-5.0333333333333"},{"id":"29550","name":"Mistley","lat":"51.933333333333","long":"1.15"},{"id":"29580","name":"Montrose","lat":"56.7","long":"-2.4666666666667"},{"id":"29684","name":"Neath","lat":"51.633333333333","long":"-3.8333333333333"},{"id":"10255","name":"New Holland","lat":"53.7","long":"-0.36666666666667"},{"id":"214887","name":"Newcastle upon Tyne","lat":"54.983333333333","long":"-1.5833333333333"},{"id":"29728","name":"Newhaven","lat":"50.783333333333","long":"0.066666666666667"},{"id":"11014","name":"Newlyn","lat":"50.1","long":"-5.55"},{"id":"21949","name":"Nigg Oil Terminal","lat":"57.7","long":"-4.0166666666667"},{"id":"213671","name":"North Woolwich","lat":"51.5","long":"0.033333333333333"},{"id":"19396","name":"Oakham Ness","lat":"51.416666666667","long":"0.63333333333333"},{"id":"29832","name":"Oban","lat":"56.416666666667","long":"-5.4833333333333"},{"id":"23073","name":"Old Kilpatrick","lat":"55.916666666667","long":"-4.45"},{"id":"19147","name":"Otterham","lat":"51.383333333333","long":"0.63333333333333"},{"id":"29850","name":"Par","lat":"50.35","long":"-4.7"},{"id":"19572","name":"Partington","lat":"53.433333333333","long":"-2.4166666666667"},{"id":"11691","name":"Pembroke","lat":"51.7","long":"-4.95"},{"id":"29919","name":"Penryn","lat":"50.166666666667","long":"-5.0666666666667"},{"id":"29969","name":"Penzance","lat":"50.116666666667","long":"-5.5333333333333"},{"id":"11235","name":"Peterhead Bay Harbour","lat":"57.5","long":"-1.7833333333333"},{"id":"26722","name":"Peterhead Harbours","lat":"57.5","long":"-1.7666666666667"},{"id":"30061","name":"Plymouth","lat":"50.366666666667","long":"-4.1166666666667"},{"id":"30097","name":"Poole","lat":"50.716666666667","long":"-1.9833333333333"},{"id":"22362","name":"Port Henry","lat":"57.5","long":"-1.7666666666667"},{"id":"22254","name":"Port Lamont","lat":"55.883333333333","long":"-5.05"},{"id":"30169","name":"Port Talbot","lat":"51.566666666667","long":"-3.8"},{"id":"27583","name":"Portree","lat":"57.4","long":"-6.1833333333333"},{"id":"10083","name":"Portsmouth","lat":"50.8","long":"-1.1166666666667"},{"id":"28624","name":"Purfleet","lat":"51.483333333333","long":"0.23333333333333"},{"id":"19197","name":"Queenborough","lat":"51.433333333333","long":"0.75"},{"id":"14702","name":"Redcar","lat":"54.616666666667","long":"-1.15"},{"id":"19028","name":"Ridham Dock","lat":"51.383333333333","long":"0.76666666666667"},{"id":"19175","name":"Rochester","lat":"51.383333333333","long":"0.5"},{"id":"219395","name":"Rosyth","lat":"56.016666666667","long":"-3.4333333333333"},{"id":"11655","name":"Rothesay","lat":"55.833333333333","long":"-5.05"},{"id":"24000","name":"Rowhedge","lat":"51.85","long":"0.96666666666667"},{"id":"10196","name":"Runcorn","lat":"53.35","long":"-2.7333333333333"},{"id":"19618","name":"Salford","lat":"53.5","long":"-2.2666666666667"},{"id":"214195","name":"Salt Island","lat":"53.316666666667","long":"-4.6166666666667"},{"id":"21934","name":"Saltburn","lat":"57.683333333333","long":"-4.1333333333333"},{"id":"24580","name":"Saltend","lat":"53.733333333333","long":"-0.2"},{"id":"11682","name":"Scalloway","lat":"60.133333333333","long":"-1.2833333333333"},{"id":"10444","name":"Scapa Flow","lat":"58.883333333333","long":"-3"},{"id":"10511","name":"Scrabster","lat":"58.616666666667","long":"-3.55"},{"id":"10569","name":"Seaham","lat":"54.833333333333","long":"-1.3166666666667"},{"id":"27190","name":"Seal Sands","lat":"54.65","long":"-1.1333333333333"},{"id":"10615","name":"Sharpness and Gloucester","lat":"51.716666666667","long":"-2.4666666666667"},{"id":"28530","name":"Shell Haven","lat":"51.516666666667","long":"0.53333333333333"},{"id":"10667","name":"Shoreham","lat":"50.833333333333","long":"-0.25"},{"id":"213690","name":"Silvertown","lat":"51.5","long":"-0.05"},{"id":"10811","name":"Southampton","lat":"50.9","long":"-1.4"},{"id":"10471","name":"St Mary's (Scilly Islands)","lat":"49.916666666667","long":"-6.4833333333333"},{"id":"19510","name":"Stanlow","lat":"53.283333333333","long":"-2.8666666666667"},{"id":"10851","name":"Stornoway","lat":"58.2","long":"-6.3666666666667"},{"id":"10893","name":"Stranraer","lat":"54.9","long":"-5.0333333333333"},{"id":"27616","name":"Sullom Voe","lat":"60.45","long":"-1.2833333333333"},{"id":"11003","name":"Sunderland","lat":"54.916666666667","long":"-1.35"},{"id":"11062","name":"Swansea","lat":"51.616666666667","long":"-3.9166666666667"},{"id":"11114","name":"Teesport","lat":"54.633333333333","long":"-1.1333333333333"},{"id":"11140","name":"Teignmouth","lat":"50.533333333333","long":"-3.4666666666667"},{"id":"11842","name":"Thamesport","lat":"51.433333333333","long":"0.7"},{"id":"18470","name":"Thelwall","lat":"53.416666666667","long":"-2.55"},{"id":"23321","name":"Tilbury","lat":"51.5","long":"0.33333333333333"},{"id":"11207","name":"Torbay Harbour","lat":"50.45","long":"-3.5166666666667"},{"id":"25177","name":"Torquay","lat":"50.45","long":"-3.5166666666667"},{"id":"11214","name":"Totnes","lat":"50.433333333333","long":"-3.6833333333333"},{"id":"19682","name":"Tranmere Oil Terminal","lat":"53.383333333333","long":"-3"},{"id":"23696","name":"Truro","lat":"50.25","long":"-5.0333333333333"},{"id":"11352","name":"Tyne","lat":"55.016666666667","long":"-1.4"},{"id":"18420","name":"Warrington","lat":"53.4","long":"-2.6166666666667"},{"id":"213558","name":"Wemyss Bay","lat":"55.883333333333","long":"-4.8833333333333"},{"id":"26042","name":"Weston Point","lat":"53.333333333333","long":"-2.7666666666667"},{"id":"11760","name":"Whitehaven","lat":"54.55","long":"-3.6"},{"id":"11849","name":"Wick","lat":"58.433333333333","long":"-3.0833333333333"},{"id":"24078","name":"Wivenhoe","lat":"51.85","long":"0.96666666666667"},{"id":"11941","name":"Workington","lat":"54.65","long":"-3.5666666666667"}]