[{"id":"19412","name":"Alcasa","lat":"8.35","long":"-62.716666666667"},{"id":"13602","name":"Amuay Bay","lat":"11.766666666667","long":"-70.25"},{"id":"19499","name":"Bachaquero","lat":"9.95","long":"-71.133333333333"},{"id":"19513","name":"Bajo Grande Refinery","lat":"10.516666666667","long":"-71.6"},{"id":"19537","name":"Borburata","lat":"10.483333333333","long":"-67.983333333333"},{"id":"19573","name":"Caripito","lat":"10.15","long":"-63.033333333333"},{"id":"19714","name":"Cumarebo","lat":"11.483333333333","long":"-69.35"},{"id":"248874","name":"El Chaure","lat":"10.416666666667","long":"-68"},{"id":"19741","name":"El Palito","lat":"10.483333333333","long":"-68.116666666667"},{"id":"19766","name":"El Tablazo","lat":"10.766666666667","long":"-71.533333333333"},{"id":"248875","name":"Guaraguao","lat":"10.233333333333","long":"-64.633333333333"},{"id":"214510","name":"Guaranao","lat":"11.666666666667","long":"-70.216666666667"},{"id":"24748","name":"Guiria","lat":"10.583333333333","long":"-62.283333333333"},{"id":"19860","name":"La Estacada","lat":"10.7","long":"-71.533333333333"},{"id":"19886","name":"La Guaira","lat":"10.633333333333","long":"-67.116666666667"},{"id":"22365","name":"Las Piedras","lat":"11.7","long":"-70.233333333333"},{"id":"248876","name":"Los Cocos","lat":"10.216666666667","long":"-64.65"},{"id":"19974","name":"Maracaibo","lat":"10.7","long":"-71.65"},{"id":"19998","name":"Moron","lat":"10.516666666667","long":"-68.183333333333"},{"id":"20038","name":"Palua","lat":"8.3666666666667","long":"-62.7"},{"id":"20055","name":"Pamatacual","lat":"10.25","long":"-64.65"},{"id":"22559","name":"Paradero","lat":"8.4","long":"-62.633333333333"},{"id":"20089","name":"Pertigalete","lat":"10.25","long":"-64.583333333333"},{"id":"20341","name":"Puerto Cabello","lat":"10.5","long":"-68"},{"id":"20248","name":"Puerto La Cruz","lat":"10.25","long":"-64.633333333333"},{"id":"20295","name":"Puerto Miranda","lat":"10.766666666667","long":"-71.55"},{"id":"20388","name":"Puerto Ordaz","lat":"8.35","long":"-62.716666666667"},{"id":"20401","name":"Punta Cardon","lat":"11.616666666667","long":"-70.25"},{"id":"20447","name":"Punta Cuchillo","lat":"8.3166666666667","long":"-62.816666666667"},{"id":"20479","name":"Punta de Palmas","lat":"10.433333333333","long":"-71.633333333333"},{"id":"20499","name":"San Felix","lat":"8.3666666666667","long":"-62.65"},{"id":"20527","name":"San Lorenzo","lat":"9.7833333333333","long":"-71.083333333333"},{"id":"16643","name":"Venterminales","lat":"10.483333333333","long":"-68.033333333333"}]